{
  "list": [
    {
      "id": 1,
      "name": "Angular Connect",
      "date": "9/26/2036",
      "time": "10am",
      "location": {
        "address": "10 London Rd",
        "city": "London",
        "country": "England"
      }
    },
    {
      "id": 2,
      "name": "ng-nl rövid",
      "date": "4/15/2037",
      "time": "10am",
      "location": {
        "address": "127 DT ",
        "city": "Amsterdam",
        "country": "NL"
      }
    },
    {
      "id": 3,
      "name": "ng-conf 2037 is",
      "date": "4/15/2037",
      "time": "9am",
      "location": {
        "address": "The Palatial America Hotel",
        "city": "Salt Lake City",
        "country": "USA"
      }
    },
    {
      "id": 4,
      "name": "UN Angular Summit",
      "date": "6/10/2037",
      "time": "8am",
      "location": {
        "address": "The UN Angular Center",
        "city": "New York",
        "country": "USA"
      }
    },
    {
      "id": 5,
      "name": "UN Angular Summit2",
      "date": "6/10/2037",
      "time": "8am",
      "location": {
        "address": "The UN Angular Center",
        "city": "New York",
        "country": "USA"
      }
    },
    {
      "id": 6,
      "name": "UN Angular Summit3",
      "date": "6/10/2037",
      "time": "8am",
      "location": {
        "address": "The UN Angular Center",
        "city": "New York",
        "country": "USA"
      }
    },
    {
      "id": 7,
      "name": "UN Angular Summit4",
      "date": "6/10/2037",
      "time": "8am",
      "location": {
        "address": "The UN Angular Center",
        "city": "New York",
        "country": "USA"
      }
    },
    {
      "id": 296781855,
      "name": "tesztElem",
      "date": "9/26/2036",
      "time": "10am",
      "location": {
        "address": "Address",
        "city": "City",
        "country": "Country"
      }
    },
    {
      "id": 671381916,
      "name": "Angular Connect",
      "date": "9/26/2036",
      "time": "10am",
      "location": {
        "address": "Address",
        "city": "City",
        "country": "Country"
      }
    },
    {
      "id": 118585779,
      "name": "Meeting lesz",
      "date": "9/26/2036",
      "time": "10am",
      "location": {
        "address": "Online",
        "city": "Bármely",
        "country": "Bármely"
      }
    }
  ]
}